[{
        "country": "AD",
        "name": "Sant Julià de Lòria",
        "lat": "42.46372",
        "lng": "1.49129"
    },
    {
        "country": "AD",
        "name": "Pas de la Casa",
        "lat": "42.54277",
        "lng": "1.73361"
    },
    {
        "country": "AD",
        "name": "Ordino",
        "lat": "42.55623",
        "lng": "1.53319"
    },
    {
        "country": "AD",
        "name": "les Escaldes",
        "lat": "42.50729",
        "lng": "1.53414"
    },
    {
        "country": "AD",
        "name": "la Massana",
        "lat": "42.54499",
        "lng": "1.51483"
    },
    {
        "country": "AD",
        "name": "Encamp",
        "lat": "42.53474",
        "lng": "1.58014"
    },
    {
        "country": "AD",
        "name": "Canillo",
        "lat": "42.5676",
        "lng": "1.59756"
    },
    {
        "country": "AD",
        "name": "Arinsal",
        "lat": "42.57205",
        "lng": "1.48453"
    },
    {
        "country": "AD",
        "name": "Andorra la Vella",
        "lat": "42.50779",
        "lng": "1.52109"
    },
    {
        "country": "AE",
        "name": "Umm al Qaywayn",
        "lat": "25.56473",
        "lng": "55.55517"
    },
    {
        "country": "AE",
        "name": "Ras al-Khaimah",
        "lat": "25.78953",
        "lng": "55.9432"
    },
    {
        "country": "AE",
        "name": "Muzayri‘",
        "lat": "23.14355",
        "lng": "53.7881"
    },
    {
        "country": "AE",
        "name": "Murbaḩ",
        "lat": "25.27623",
        "lng": "56.36256"
    },
    {
        "country": "AE",
        "name": "Khawr Fakkān",
        "lat": "25.33132",
        "lng": "56.34199"
    },
    {
        "country": "AE",
        "name": "Dubai",
        "lat": "25.0657",
        "lng": "55.17128"
    },
    {
        "country": "AE",
        "name": "Dibba Al-Fujairah",
        "lat": "25.59246",
        "lng": "56.26176"
    },
    {
        "country": "AE",
        "name": "Dibba Al-Hisn",
        "lat": "25.61955",
        "lng": "56.27291"
    },
    {
        "country": "AE",
        "name": "Sharjah",
        "lat": "25.33737",
        "lng": "55.41206"
    },
    {
        "country": "AE",
        "name": "Ar Ruways",
        "lat": "24.11028",
        "lng": "52.73056"
    },
    {
        "country": "AE",
        "name": "Al Fujayrah",
        "lat": "25.11641",
        "lng": "56.34141"
    },
    {
        "country": "AE",
        "name": "Al Ain",
        "lat": "24.19167",
        "lng": "55.76056"
    },
    {
        "country": "AE",
        "name": "Ajman",
        "lat": "25.41111",
        "lng": "55.43504"
    },
    {
        "country": "AE",
        "name": "Adh Dhayd",
        "lat": "25.28812",
        "lng": "55.88157"
    },
    {
        "country": "AE",
        "name": "Abu Dhabi",
        "lat": "24.46667",
        "lng": "54.36667"
    },
    {
        "country": "AF",
        "name": "Zorkot",
        "lat": "33.54149",
        "lng": "69.73446"
    },
    {
        "country": "AF",
        "name": "Wulêswālī Bihsūd",
        "lat": "34.3436",
        "lng": "67.90567"
    },
    {
        "country": "AF",
        "name": "Kuhsān",
        "lat": "34.65389",
        "lng": "61.19778"
    },
    {
        "country": "AF",
        "name": "Lāsh",
        "lat": "35.3782",
        "lng": "64.77457"
    },
    {
        "country": "AF",
        "name": "Tukzār",
        "lat": "35.94831",
        "lng": "66.42132"
    },
    {
        "country": "AF",
        "name": "Mīray",
        "lat": "33.32462",
        "lng": "68.44068"
    },
    {
        "country": "AF",
        "name": "Āq Kupruk",
        "lat": "36.08352",
        "lng": "66.84029"
    },
    {
        "country": "AF",
        "name": "Zurmat",
        "lat": "33.43778",
        "lng": "69.02774"
    },
    {
        "country": "AF",
        "name": "Zaybāk",
        "lat": "36.52947",
        "lng": "71.3441"
    },
    {
        "country": "AF",
        "name": "Zīārat-e Shāh Maqşūd",
        "lat": "31.9848",
        "lng": "65.4736"
    },
    {
        "country": "AF",
        "name": "Zindah Jān",
        "lat": "34.34264",
        "lng": "61.74675"
    },
    {
        "country": "AF",
        "name": "Zarghūn Shahr",
        "lat": "32.84734",
        "lng": "68.44573"
    },
    {
        "country": "AF",
        "name": "Zaṟah Sharan",
        "lat": "33.14641",
        "lng": "68.79213"
    },
    {
        "country": "AF",
        "name": "Zaranj",
        "lat": "30.95962",
        "lng": "61.86037"
    },
    {
        "country": "AF",
        "name": "Zamtō Kêlay",
        "lat": "32.3726",
        "lng": "66.17708"
    },
    {
        "country": "AF",
        "name": "Yangī Qal‘ah",
        "lat": "37.46572",
        "lng": "69.61131"
    },
    {
        "country": "AF",
        "name": "Yaḩyá Khēl",
        "lat": "32.93742",
        "lng": "68.64622"
    },
    {
        "country": "AF",
        "name": "Wāshēr",
        "lat": "32.25122",
        "lng": "63.85553"
    },
    {
        "country": "AF",
        "name": "Tōrmay",
        "lat": "33.68847",
        "lng": "68.40205"
    },
    {
        "country": "AF",
        "name": "Tūlak",
        "lat": "33.97509",
        "lng": "63.72868"
    },
    {
        "country": "AF",
        "name": "Tītān",
        "lat": "33.69032",
        "lng": "63.86361"
    },
    {
        "country": "AF",
        "name": "Tīr Pul",
        "lat": "34.59431",
        "lng": "61.26895"
    },
    {
        "country": "AF",
        "name": "Taywarah",
        "lat": "33.52118",
        "lng": "64.42116"
    },
    {
        "country": "AF",
        "name": "Bāzār-e Tashkān",
        "lat": "36.88168",
        "lng": "70.27674"
    },
    {
        "country": "AF",
        "name": "Tarinkot",
        "lat": "32.62998",
        "lng": "65.87806"
    },
    {
        "country": "AF",
        "name": "Taloqan",
        "lat": "36.73605",
        "lng": "69.53451"
    },
    {
        "country": "AF",
        "name": "Tagāw-Bāy",
        "lat": "35.69941",
        "lng": "66.06164"
    },
    {
        "country": "AF",
        "name": "Tagāb",
        "lat": "34.85501",
        "lng": "69.64917"
    },
    {
        "country": "AF",
        "name": "Markaz-e Ḩukūmat-e Sulţān-e Bakwāh",
        "lat": "32.24139",
        "lng": "62.94936"
    },
    {
        "country": "AF",
        "name": "Spīn Bōldak",
        "lat": "31.00575",
        "lng": "66.40001"
    },
    {
        "country": "AF",
        "name": "Spērah",
        "lat": "33.20204",
        "lng": "69.5152"
    },
    {
        "country": "AF",
        "name": "Sōzmah Qal‘ah",
        "lat": "36.09916",
        "lng": "66.20823"
    },
    {
        "country": "AF",
        "name": "Siyāhgird",
        "lat": "35.00553",
        "lng": "68.85578"
    },
    {
        "country": "AF",
        "name": "Sheywah",
        "lat": "34.57169",
        "lng": "70.58859"
    },
    {
        "country": "AF",
        "name": "Shīnḏanḏ",
        "lat": "33.30294",
        "lng": "62.1474"
    },
    {
        "country": "AF",
        "name": "Shaykh Amīr Kêlay",
        "lat": "33.28744",
        "lng": "69.91283"
    },
    {
        "country": "AF",
        "name": "Qāshqāl",
        "lat": "35.03975",
        "lng": "69.00685"
    },
    {
        "country": "AF",
        "name": "Shibirghān",
        "lat": "36.66757",
        "lng": "65.7529"
    },
    {
        "country": "AF",
        "name": "Shwāk",
        "lat": "33.42386",
        "lng": "69.37684"
    },
    {
        "country": "AF",
        "name": "Shahr-e Şafā",
        "lat": "31.80347",
        "lng": "66.32376"
    },
    {
        "country": "AF",
        "name": "Shahrān",
        "lat": "36.97984",
        "lng": "70.73928"
    },
    {
        "country": "AF",
        "name": "Shahrak",
        "lat": "34.10737",
        "lng": "64.3052"
    },
    {
        "country": "AF",
        "name": "‘Alāqahdārī Shāh Jōy",
        "lat": "32.52154",
        "lng": "67.41315"
    },
    {
        "country": "AF",
        "name": "Wulêswālī Sayyid Karam",
        "lat": "33.69056",
        "lng": "69.36881"
    },
    {
        "country": "AF",
        "name": "Markaz-e Sayyidābād",
        "lat": "34.00037",
        "lng": "68.71346"
    },
    {
        "country": "AF",
        "name": "Şayād",
        "lat": "36.13529",
        "lng": "65.8297"
    },
    {
        "country": "AF",
        "name": "Sidqābād",
        "lat": "35.02298",
        "lng": "69.35112"
    },
    {
        "country": "AF",
        "name": "Sāyagaz",
        "lat": "32.56521",
        "lng": "67.03324"
    },
    {
        "country": "AF",
        "name": "Sar-e Tayghān",
        "lat": "33.50998",
        "lng": "65.67632"
    },
    {
        "country": "AF",
        "name": "Sarōbī",
        "lat": "34.58962",
        "lng": "69.76005"
    },
    {
        "country": "AF",
        "name": "Sar Kāṉī",
        "lat": "34.79023",
        "lng": "71.10962"
    },
    {
        "country": "AF",
        "name": "Sarfirāz Kalā",
        "lat": "32.98333",
        "lng": "67.96517"
    },
    {
        "country": "AF",
        "name": "Sar-e Pul",
        "lat": "36.21544",
        "lng": "65.93249"
    },
    {
        "country": "AF",
        "name": "Sar Chakān",
        "lat": "35.70177",
        "lng": "65.23055"
    },
    {
        "country": "AF",
        "name": "Sangīn",
        "lat": "32.07275",
        "lng": "64.8359"
    },
    {
        "country": "AF",
        "name": "Sang-e Māshah",
        "lat": "33.1396",
        "lng": "67.44046"
    },
    {
        "country": "AF",
        "name": "Sang-e Chārak",
        "lat": "35.84972",
        "lng": "66.43694"
    },
    {
        "country": "AF",
        "name": "Sang Atesh",
        "lat": "35.248",
        "lng": "63.0044"
    },
    {
        "country": "AF",
        "name": "Sangar Sarāy",
        "lat": "34.40744",
        "lng": "70.63937"
    },
    {
        "country": "AF",
        "name": "Aībak",
        "lat": "36.26468",
        "lng": "68.01551"
    },
    {
        "country": "AF",
        "name": "Rū-ye Sang",
        "lat": "35.31999",
        "lng": "67.63387"
    },
    {
        "country": "AF",
        "name": "Rūdbār",
        "lat": "30.15",
        "lng": "62.6"
    },
    {
        "country": "AF",
        "name": "Rustāq",
        "lat": "37.12604",
        "lng": "69.83045"
    },
    {
        "country": "AF",
        "name": "Rabāţ-e Sangī-ye Pā’īn",
        "lat": "34.79951",
        "lng": "62.13917"
    },
    {
        "country": "AF",
        "name": "Rāmak",
        "lat": "33.52234",
        "lng": "68.6264"
    },
    {
        "country": "AF",
        "name": "Qurghān",
        "lat": "36.91939",
        "lng": "65.0649"
    },
    {
        "country": "AF",
        "name": "Quchanghī",
        "lat": "34.06183",
        "lng": "66.27801"
    },
    {
        "country": "AF",
        "name": "Sangalak-i-Kaisar",
        "lat": "35.68747",
        "lng": "64.29318"
    },
    {
        "country": "AF",
        "name": "Qarqīn",
        "lat": "37.41853",
        "lng": "66.04358"
    },
    {
        "country": "AF",
        "name": "Qarghah’ī",
        "lat": "34.55402",
        "lng": "70.24292"
    },
    {
        "country": "AF",
        "name": "Qarchī Gak",
        "lat": "37.03999",
        "lng": "66.78891"
    },
    {
        "country": "AF",
        "name": "Qarāwul",
        "lat": "37.21959",
        "lng": "68.7802"
    },
    {
        "country": "AF",
        "name": "Qarah Bāgh",
        "lat": "34.94023",
        "lng": "61.77589"
    },
    {
        "country": "AF",
        "name": "Qarah Bāgh",
        "lat": "33.19801",
        "lng": "68.10798"
    },
    {
        "country": "AF",
        "name": "Qala i Naw",
        "lat": "34.98735",
        "lng": "63.12891"
    },
    {
        "country": "AF",
        "name": "Qal‘ah-ye Kūf",
        "lat": "38.04119",
        "lng": "70.47298"
    },
    {
        "country": "AF",
        "name": "Qal‘ah-ye Kuhnah",
        "lat": "32.61591",
        "lng": "63.66681"
    },
    {
        "country": "AF",
        "name": "Qal‘ah-ye Shahr",
        "lat": "35.54729",
        "lng": "65.5676"
    },
    {
        "country": "AF",
        "name": "Qalāt",
        "lat": "32.10575",
        "lng": "66.90833"
    },
    {
        "country": "AF",
        "name": "Qal‘ah-ye Shāhī",
        "lat": "34.64921",
        "lng": "70.5914"
    },
    {
        "country": "AF",
        "name": "Qādis",
        "lat": "34.8085",
        "lng": "63.43003"
    },
    {
        "country": "AF",
        "name": "Pārūn",
        "lat": "35.42064",
        "lng": "70.92261"
    },
    {
        "country": "AF",
        "name": "Pul-e Khumrī",
        "lat": "35.94458",
        "lng": "68.71512"
    },
    {
        "country": "AF",
        "name": "Pul-e ‘Alam",
        "lat": "33.99529",
        "lng": "69.02274"
    },
    {
        "country": "AF",
        "name": "Pasnay",
        "lat": "35.76664",
        "lng": "65.76486"
    },
    {
        "country": "AF",
        "name": "Pāshmūl",
        "lat": "31.5572",
        "lng": "65.4343"
    },
    {
        "country": "AF",
        "name": "Pasāband",
        "lat": "33.68956",
        "lng": "64.8531"
    },
    {
        "country": "AF",
        "name": "Panjāb",
        "lat": "34.38795",
        "lng": "67.02327"
    },
    {
        "country": "AF",
        "name": "Paghmān",
        "lat": "34.58787",
        "lng": "68.95091"
    },
    {
        "country": "AF",
        "name": "Ōmnah",
        "lat": "32.90029",
        "lng": "68.79627"
    },
    {
        "country": "AF",
        "name": "Qaryeh-ye Owbeh",
        "lat": "34.36972",
        "lng": "63.17639"
    },
    {
        "country": "AF",
        "name": "Uruzgān",
        "lat": "32.92775",
        "lng": "66.63253"
    },
    {
        "country": "AF",
        "name": "Urgun",
        "lat": "32.9515",
        "lng": "69.1828"
    },
    {
        "country": "AF",
        "name": "Nūsay",
        "lat": "38.4435",
        "lng": "70.80413"
    },
    {
        "country": "AF",
        "name": "Nūrgal",
        "lat": "34.61341",
        "lng": "70.76498"
    },
    {
        "country": "AF",
        "name": "Now Zād",
        "lat": "32.40315",
        "lng": "64.46959"
    },
    {
        "country": "AF",
        "name": "Nīlī",
        "lat": "33.72178",
        "lng": "66.13023"
    },
    {
        "country": "AF",
        "name": "Nayak",
        "lat": "34.73414",
        "lng": "66.95292"
    },
    {
        "country": "AF",
        "name": "Nāyak",
        "lat": "32.5723",
        "lng": "66.77403"
    },
    {
        "country": "AF",
        "name": "Now Dahānak",
        "lat": "35.62398",
        "lng": "70.00511"
    },
    {
        "country": "AF",
        "name": "Ōkak",
        "lat": "33.89793",
        "lng": "67.95652"
    },
    {
        "country": "AF",
        "name": "Nāṟay",
        "lat": "35.21995",
        "lng": "71.52284"
    },
    {
        "country": "AF",
        "name": "Narang",
        "lat": "34.76009",
        "lng": "71.04738"
    },
    {
        "country": "AF",
        "name": "Nīkêh",
        "lat": "33.18934",
        "lng": "69.27179"
    },
    {
        "country": "AF",
        "name": "Nahrīn",
        "lat": "36.0649",
        "lng": "69.13343"
    },
    {
        "country": "AF",
        "name": "Ḩukūmat-e Nād ‘Alī",
        "lat": "31.64286",
        "lng": "64.23982"
    },
    {
        "country": "AF",
        "name": "Mūsá Qal‘ah",
        "lat": "32.44565",
        "lng": "64.74486"
    },
    {
        "country": "AF",
        "name": "Bala Murghab",
        "lat": "35.58408",
        "lng": "63.32886"
    },
    {
        "country": "AF",
        "name": "Muqêr",
        "lat": "32.82009",
        "lng": "67.76934"
    },
    {
        "country": "AF",
        "name": "Muḩammad Āghah Wuluswālī",
        "lat": "34.21422",
        "lng": "69.10026"
    },
    {
        "country": "AF",
        "name": "Mīzān ‘Alāqahdārī",
        "lat": "32.17635",
        "lng": "66.51271"
    },
    {
        "country": "AF",
        "name": "Mīr Bachah Kōṯ",
        "lat": "34.74999",
        "lng": "69.11899"
    },
    {
        "country": "AF",
        "name": "Mīrān",
        "lat": "34.22037",
        "lng": "68.31259"
    },
    {
        "country": "AF",
        "name": "Mīrābād",
        "lat": "30.43624",
        "lng": "61.8383"
    },
    {
        "country": "AF",
        "name": "Maymana",
        "lat": "35.92139",
        "lng": "64.78361"
    },
    {
        "country": "AF",
        "name": "Maīdān Khūlah",
        "lat": "33.64916",
        "lng": "69.7812"
    },
    {
        "country": "AF",
        "name": "Mingajik",
        "lat": "37.0279",
        "lng": "66.12817"
    },
    {
        "country": "AF",
        "name": "Mehtar Lām",
        "lat": "34.67139",
        "lng": "70.20944"
    },
    {
        "country": "AF",
        "name": "Mazār-e Sharīf",
        "lat": "36.70904",
        "lng": "67.11087"
    },
    {
        "country": "AF",
        "name": "Māymay",
        "lat": "38.40856",
        "lng": "71.03839"
    },
    {
        "country": "AF",
        "name": "Mutā Khān",
        "lat": "33.24001",
        "lng": "68.8663"
    },
    {
        "country": "AF",
        "name": "Mashhad",
        "lat": "36.81665",
        "lng": "70.10211"
    },
    {
        "country": "AF",
        "name": "Mardīān",
        "lat": "36.99252",
        "lng": "66.29654"
    },
    {
        "country": "AF",
        "name": "Mandōl",
        "lat": "35.28403",
        "lng": "70.17017"
    },
    {
        "country": "AF",
        "name": "Māmā Khēl",
        "lat": "34.24494",
        "lng": "69.9968"
    },
    {
        "country": "AF",
        "name": "Lashkar Gāh",
        "lat": "31.59382",
        "lng": "64.37161"
    },
    {
        "country": "AF",
        "name": "Lāsh-e Juwayn",
        "lat": "31.71382",
        "lng": "61.62272"
    },
    {
        "country": "AF",
        "name": "Larkird",
        "lat": "35.48936",
        "lng": "66.66409"
    },
    {
        "country": "AF",
        "name": "La‘l",
        "lat": "34.50141",
        "lng": "66.27997"
    },
    {
        "country": "AF",
        "name": "Kushk",
        "lat": "33.29565",
        "lng": "61.95221"
    },
    {
        "country": "AF",
        "name": "Kōṯowāl",
        "lat": "34.10319",
        "lng": "70.46073"
    },
    {
        "country": "AF",
        "name": "Kushk-e Kuhnah",
        "lat": "34.8711",
        "lng": "62.54762"
    },
    {
        "country": "AF",
        "name": "Kuran wa Munjan",
        "lat": "36.02866",
        "lng": "70.77258"
    },
    {
        "country": "AF",
        "name": "Kunduz",
        "lat": "36.72895",
        "lng": "68.857"
    },
    {
        "country": "AF",
        "name": "Khōshī",
        "lat": "33.99916",
        "lng": "69.21582"
    },
    {
        "country": "AF",
        "name": "Khōshāmand",
        "lat": "32.68567",
        "lng": "68.23801"
    },
    {
        "country": "AF",
        "name": "Khwājah Ghār",
        "lat": "37.06588",
        "lng": "69.42126"
    },
    {
        "country": "AF",
        "name": "Khwājah Dū Kōh",
        "lat": "36.82881",
        "lng": "65.62432"
    },
    {
        "country": "AF",
        "name": "Deh Khwāhān",
        "lat": "37.88965",
        "lng": "70.21875"
    },
    {
        "country": "AF",
        "name": "Khulbisāt",
        "lat": "33.4948",
        "lng": "70.00605"
    },
    {
        "country": "AF",
        "name": "Khūgyāṉī",
        "lat": "31.56267",
        "lng": "66.5814"
    },
    {
        "country": "AF",
        "name": "Khōst",
        "lat": "33.33951",
        "lng": "69.92041"
    },
    {
        "country": "AF",
        "name": "Khulm",
        "lat": "36.69736",
        "lng": "67.69826"
    },
    {
        "country": "AF",
        "name": "Khudāydād Khēl",
        "lat": "35.17835",
        "lng": "67.68758"
    },
    {
        "country": "AF",
        "name": "Khinjān",
        "lat": "35.58908",
        "lng": "68.90093"
    },
    {
        "country": "AF",
        "name": "Khinj",
        "lat": "35.42898",
        "lng": "69.73482"
    },
    {
        "country": "AF",
        "name": "Khāsh",
        "lat": "31.52919",
        "lng": "62.79055"
    },
    {
        "country": "AF",
        "name": "Khān Neshīn",
        "lat": "30.5488",
        "lng": "63.7888"
    },
    {
        "country": "AF",
        "name": "Khānaqāh",
        "lat": "36.62587",
        "lng": "69.53695"
    },
    {
        "country": "AF",
        "name": "Chahār Bāgh",
        "lat": "37.00108",
        "lng": "65.22392"
    },
    {
        "country": "AF",
        "name": "Khandūd",
        "lat": "36.95127",
        "lng": "72.318"
    },
    {
        "country": "AF",
        "name": "Khānaqāh",
        "lat": "36.86279",
        "lng": "66.16656"
    },
    {
        "country": "AF",
        "name": "Khanabad",
        "lat": "36.6825",
        "lng": "69.11556"
    },
    {
        "country": "AF",
        "name": "Khamyāb",
        "lat": "37.5275",
        "lng": "65.75833"
    },
    {
        "country": "AF",
        "name": "Khākirān",
        "lat": "32.8385",
        "lng": "67.07377"
    },
    {
        "country": "AF",
        "name": "Kaz̲h̲ah",
        "lat": "34.24088",
        "lng": "70.18274"
    },
    {
        "country": "AF",
        "name": "Kishk-e Nakhūd",
        "lat": "31.62519",
        "lng": "65.05511"
    },
    {
        "country": "AF",
        "name": "Karukh",
        "lat": "34.48108",
        "lng": "62.5863"
    },
    {
        "country": "AF",
        "name": "Kanḏay",
        "lat": "34.9536",
        "lng": "70.77897"
    },
    {
        "country": "AF",
        "name": "Kandahār",
        "lat": "31.61332",
        "lng": "65.71013"
    },
    {
        "country": "AF",
        "name": "Kalān Deh",
        "lat": "33.83676",
        "lng": "68.40233"
    },
    {
        "country": "AF",
        "name": "Kalakān",
        "lat": "34.78371",
        "lng": "69.15001"
    },
    {
        "country": "AF",
        "name": "Kalafgān",
        "lat": "36.77226",
        "lng": "69.94489"
    },
    {
        "country": "AF",
        "name": "Kajrān",
        "lat": "33.20357",
        "lng": "65.47311"
    },
    {
        "country": "AF",
        "name": "Kai",
        "lat": "34.12819",
        "lng": "70.71828"
    },
    {
        "country": "AF",
        "name": "Kabul",
        "lat": "34.52813",
        "lng": "69.17233"
    },
    {
        "country": "AF",
        "name": "Jurm",
        "lat": "36.86477",
        "lng": "70.83421"
    },
    {
        "country": "AF",
        "name": "Jawand",
        "lat": "35.06361",
        "lng": "64.14917"
    },
    {
        "country": "AF",
        "name": "Jānī Khēl",
        "lat": "32.76315",
        "lng": "68.39722"
    },
    {
        "country": "AF",
        "name": "Jalrēz",
        "lat": "34.4708",
        "lng": "68.65438"
    },
    {
        "country": "AF",
        "name": "Jalālābād",
        "lat": "34.42647",
        "lng": "70.45153"
    },
    {
        "country": "AF",
        "name": "Jabal os Saraj",
        "lat": "35.11833",
        "lng": "69.23778"
    },
    {
        "country": "AF",
        "name": "Ḩukūmat-e Shīnkaī",
        "lat": "31.98303",
        "lng": "67.33558"
    },
    {
        "country": "AF",
        "name": "Herāt",
        "lat": "34.34817",
        "lng": "62.19967"
    },
    {
        "country": "AF",
        "name": "Ḩājī Khēl",
        "lat": "35.10922",
        "lng": "69.43341"
    },
    {
        "country": "AF",
        "name": "Ḩāfiz̧ Moghul",
        "lat": "37.05643",
        "lng": "70.40061"
    },
    {
        "country": "AF",
        "name": "Khafizan",
        "lat": "34.28665",
        "lng": "70.37247"
    },
    {
        "country": "AF",
        "name": "Guz̄arah",
        "lat": "34.21223",
        "lng": "62.21235"
    },
    {
        "country": "AF",
        "name": "Gōshtah",
        "lat": "34.35822",
        "lng": "70.76264"
    },
    {
        "country": "AF",
        "name": "Gōmal Kêlay",
        "lat": "32.50989",
        "lng": "68.85598"
    },
    {
        "country": "AF",
        "name": "‘Alāqahdārī Gēlān",
        "lat": "32.72692",
        "lng": "67.63696"
    },
    {
        "country": "AF",
        "name": "Ghōriyān",
        "lat": "34.3448",
        "lng": "61.49321"
    },
    {
        "country": "AF",
        "name": "Ghormach",
        "lat": "35.73062",
        "lng": "63.78264"
    },
    {
        "country": "AF",
        "name": "Ghurayd Gharamē",
        "lat": "36.5222",
        "lng": "70.79063"
    },
    {
        "country": "AF",
        "name": "Ghazni",
        "lat": "33.55391",
        "lng": "68.42096"
    },
    {
        "country": "AF",
        "name": "Gereshk",
        "lat": "31.82089",
        "lng": "64.57005"
    },
    {
        "country": "AF",
        "name": "Gardez",
        "lat": "33.59744",
        "lng": "69.22592"
    },
    {
        "country": "AF",
        "name": "Fayzabad",
        "lat": "37.11664",
        "lng": "70.58002"
    },
    {
        "country": "AF",
        "name": "Faīẕābād",
        "lat": "36.82091",
        "lng": "66.45921"
    },
    {
        "country": "AF",
        "name": "Fayẕābād",
        "lat": "36.29111",
        "lng": "64.86222"
    },
    {
        "country": "AF",
        "name": "Qal‘ah-ye Fārsī",
        "lat": "33.78529",
        "lng": "63.24735"
    },
    {
        "country": "AF",
        "name": "Farkhār",
        "lat": "36.57288",
        "lng": "69.85783"
    },
    {
        "country": "AF",
        "name": "Farah",
        "lat": "32.37451",
        "lng": "62.11638"
    },
    {
        "country": "AF",
        "name": "Istālif",
        "lat": "34.83268",
        "lng": "69.07756"
    },
    {
        "country": "AF",
        "name": "Kafir Qala",
        "lat": "34.66667",
        "lng": "61.06667"
    },
    {
        "country": "AF",
        "name": "Injīl",
        "lat": "34.30157",
        "lng": "62.2465"
    },
    {
        "country": "AF",
        "name": "Imām Şāḩib",
        "lat": "37.18897",
        "lng": "68.93644"
    },
    {
        "country": "AF",
        "name": "Dōshī",
        "lat": "35.60918",
        "lng": "68.68473"
    },
    {
        "country": "AF",
        "name": "Dowlatyār",
        "lat": "34.55132",
        "lng": "65.79302"
    },
    {
        "country": "AF",
        "name": "Dowlat Shāh",
        "lat": "34.9504",
        "lng": "70.07102"
    },
    {
        "country": "AF",
        "name": "Dowlatābād",
        "lat": "36.98821",
        "lng": "66.82069"
    },
    {
        "country": "AF",
        "name": "Dowlatābād",
        "lat": "36.43259",
        "lng": "64.92071"
    },
    {
        "country": "AF",
        "name": "Dū Qal‘ah",
        "lat": "32.14237",
        "lng": "61.4469"
    },
    {
        "country": "AF",
        "name": "Dūāb",
        "lat": "35.56277",
        "lng": "67.82191"
    },
    {
        "country": "AF",
        "name": "Dê Nārkhēl Kêlay",
        "lat": "32.43205",
        "lng": "65.63484"
    },
    {
        "country": "AF",
        "name": "Dehī",
        "lat": "35.95806",
        "lng": "67.27998"
    },
    {
        "country": "AF",
        "name": "Deh-e Şalāḩ",
        "lat": "35.69031",
        "lng": "69.31511"
    },
    {
        "country": "AF",
        "name": "Deh-e Now",
        "lat": "34.74767",
        "lng": "69.04784"
    },
    {
        "country": "AF",
        "name": "Dehdādī",
        "lat": "36.66319",
        "lng": "66.99339"
    },
    {
        "country": "AF",
        "name": "Dwah Manḏay",
        "lat": "33.28159",
        "lng": "69.58531"
    },
    {
        "country": "AF",
        "name": "Dasht-e Qal‘ah",
        "lat": "37.1539",
        "lng": "69.4435"
    },
    {
        "country": "AF",
        "name": "Dasht-e Qal‘ah",
        "lat": "33.02978",
        "lng": "63.8395"
    },
    {
        "country": "AF",
        "name": "Dasht-e Archī",
        "lat": "37.13333",
        "lng": "69.16667"
    },
    {
        "country": "AF",
        "name": "Darzāb",
        "lat": "35.97744",
        "lng": "65.37828"
    },
    {
        "country": "AF",
        "name": "Markaz-e Ḩukūmat-e Darwēshān",
        "lat": "31.13231",
        "lng": "64.1934"
    },
    {
        "country": "AF",
        "name": "Darqad",
        "lat": "37.38414",
        "lng": "69.45294"
    },
    {
        "country": "AF",
        "name": "Darāyim",
        "lat": "36.86667",
        "lng": "70.38333"
    },
    {
        "country": "AF",
        "name": "Dāngām",
        "lat": "34.99249",
        "lng": "71.41935"
    },
    {
        "country": "AF",
        "name": "Ḏanḏar",
        "lat": "34.79095",
        "lng": "69.47504"
    },
    {
        "country": "AF",
        "name": "Ḩukūmatī Dahanah-ye Ghōrī",
        "lat": "35.90617",
        "lng": "68.48869"
    },
    {
        "country": "AF",
        "name": "Tsowkêy",
        "lat": "34.69246",
        "lng": "70.92688"
    },
    {
        "country": "AF",
        "name": "Chīras",
        "lat": "35.41674",
        "lng": "65.98234"
    },
    {
        "country": "AF",
        "name": "Chisht-e Sharīf",
        "lat": "34.34731",
        "lng": "63.73966"
    },
    {
        "country": "AF",
        "name": "Chinār",
        "lat": "32.01583",
        "lng": "65.10721"
    },
    {
        "country": "AF",
        "name": "Chimtāl",
        "lat": "36.67818",
        "lng": "66.80325"
    },
    {
        "country": "AF",
        "name": "Charkh",
        "lat": "33.79712",
        "lng": "68.93749"
    },
    {
        "country": "AF",
        "name": "Charikar",
        "lat": "35.01361",
        "lng": "69.17139"
    },
    {
        "country": "AF",
        "name": "Dowr-e Rabāţ",
        "lat": "36.69132",
        "lng": "68.79093"
    },
    {
        "country": "AF",
        "name": "Tsapêraī",
        "lat": "33.83003",
        "lng": "69.9192"
    },
    {
        "country": "AF",
        "name": "Tsamkanī",
        "lat": "33.80298",
        "lng": "69.81671"
    },
    {
        "country": "AF",
        "name": "Chakaray",
        "lat": "34.34099",
        "lng": "69.4377"
    },
    {
        "country": "AF",
        "name": "Chākarān",
        "lat": "36.91112",
        "lng": "71.0688"
    },
    {
        "country": "AF",
        "name": "Chahār Qal‘ah",
        "lat": "33.55267",
        "lng": "68.29828"
    },
    {
        "country": "AF",
        "name": "Chahār Burj",
        "lat": "34.24475",
        "lng": "62.19165"
    },
    {
        "country": "AF",
        "name": "Chāh Āb",
        "lat": "37.39773",
        "lng": "69.81464"
    },
    {
        "country": "AF",
        "name": "Fayrōz Kōh",
        "lat": "34.51952",
        "lng": "65.25093"
    },
    {
        "country": "AF",
        "name": "Bulōlah",
        "lat": "34.87706",
        "lng": "68.0879"
    },
    {
        "country": "AF",
        "name": "Bal Chirāgh",
        "lat": "35.84026",
        "lng": "65.2309"
    },
    {
        "country": "AF",
        "name": "Bāzār-e Tālah",
        "lat": "35.39205",
        "lng": "68.22317"
    },
    {
        "country": "AF",
        "name": "Bāsawul",
        "lat": "34.24749",
        "lng": "70.87218"
    },
    {
        "country": "AF",
        "name": "Būrkah",
        "lat": "36.22242",
        "lng": "69.15037"
    },
    {
        "country": "AF",
        "name": "Barg-e Matāl",
        "lat": "35.67283",
        "lng": "71.34339"
    },
    {
        "country": "AF",
        "name": "Baraki Barak",
        "lat": "33.96744",
        "lng": "68.9492"
    },
    {
        "country": "AF",
        "name": "Banū",
        "lat": "35.63348",
        "lng": "69.26019"
    },
    {
        "country": "AF",
        "name": "Bāmyān",
        "lat": "34.82156",
        "lng": "67.82734"
    },
    {
        "country": "AF",
        "name": "Balkh",
        "lat": "36.75635",
        "lng": "66.8972"
    },
    {
        "country": "AF",
        "name": "Bahārak",
        "lat": "37.00254",
        "lng": "70.90664"
    },
    {
        "country": "AF",
        "name": "Bagrāmī",
        "lat": "34.49376",
        "lng": "69.27427"
    },
    {
        "country": "AF",
        "name": "Baghlān",
        "lat": "36.13068",
        "lng": "68.70829"
    },
    {
        "country": "AF",
        "name": "Ḩukūmatī Azrah",
        "lat": "34.17355",
        "lng": "69.64573"
    },
    {
        "country": "AF",
        "name": "Ārt Khwājah",
        "lat": "37.08571",
        "lng": "69.47958"
    },
    {
        "country": "AF",
        "name": "‘Alāqahdārī Aṯghar",
        "lat": "31.73506",
        "lng": "67.3574"
    },
    {
        "country": "AF",
        "name": "Āsmār",
        "lat": "35.03333",
        "lng": "71.35809"
    },
    {
        "country": "AF",
        "name": "Ashkāsham",
        "lat": "36.68333",
        "lng": "71.53333"
    },
    {
        "country": "AF",
        "name": "Asadābād",
        "lat": "34.87311",
        "lng": "71.14697"
    },
    {
        "country": "AF",
        "name": "Āqchah",
        "lat": "36.905",
        "lng": "66.18341"
    },
    {
        "country": "AF",
        "name": "Andkhōy",
        "lat": "36.95293",
        "lng": "65.12376"
    },
    {
        "country": "AF",
        "name": "’Unābah",
        "lat": "35.23251",
        "lng": "69.37719"
    },
    {
        "country": "AF",
        "name": "Anār Darah",
        "lat": "32.7587",
        "lng": "61.65397"
    },
    {
        "country": "AF",
        "name": "Amānzī",
        "lat": "30.21144",
        "lng": "66.04765"
    },
    {
        "country": "AF",
        "name": "‘Alāqahdārī-ye Almār",
        "lat": "35.84616",
        "lng": "64.53074"
    },
    {
        "country": "AF",
        "name": "‘Alī Shēr ‘Alāqahdārī",
        "lat": "33.4362",
        "lng": "70.06711"
    },
    {
        "country": "AF",
        "name": "Wuluswālī ‘Alīngār",
        "lat": "34.83529",
        "lng": "70.3593"
    },
    {
        "country": "AF",
        "name": "‘Alī Khēl",
        "lat": "33.94253",
        "lng": "69.71908"
    },
    {
        "country": "AF",
        "name": "‘Alāqahdārī Yōsuf Khēl",
        "lat": "33.05195",
        "lng": "68.65"
    },
    {
        "country": "AF",
        "name": "‘Alāqahdārī Dīshū",
        "lat": "30.43206",
        "lng": "63.29802"
    },
    {
        "country": "AF",
        "name": "Alah Sāy",
        "lat": "34.8965",
        "lng": "69.72049"
    },
    {
        "country": "AF",
        "name": "Pachīr wa Āgām",
        "lat": "34.20011",
        "lng": "70.27806"
    },
    {
        "country": "AF",
        "name": "Afaki",
        "lat": "36.66172",
        "lng": "69.35095"
    },
    {
        "country": "AF",
        "name": "Adraskan",
        "lat": "33.64573",
        "lng": "62.26959"
    },
    {
        "country": "AF",
        "name": "Āb-e Kamarī",
        "lat": "35.08796",
        "lng": "63.0678"
    },
    {
        "country": "AF",
        "name": "Khadīr",
        "lat": "33.92232",
        "lng": "65.93398"
    },
    {
        "country": "AF",
        "name": "Ghulām ‘Alī",
        "lat": "34.95076",
        "lng": "69.2287"
    },
    {
        "country": "AF",
        "name": "Qarah Bāgh Bāzār",
        "lat": "34.8529",
        "lng": "69.17062"
    },
    {
        "country": "AF",
        "name": "Zargarān",
        "lat": "34.78764",
        "lng": "69.05878"
    },
    {
        "country": "AF",
        "name": "Surkh Bilandī",
        "lat": "34.68474",
        "lng": "69.02863"
    },
    {
        "country": "AF",
        "name": "Pul-e Sangī",
        "lat": "34.59972",
        "lng": "69.25993"
    },
    {
        "country": "AF",
        "name": "Langar",
        "lat": "35.99474",
        "lng": "68.05081"
    },
    {
        "country": "AF",
        "name": "Bāgh-e Maīdān",
        "lat": "35.22156",
        "lng": "69.21397"
    },
    {
        "country": "AF",
        "name": "Ibrāhīm Khān",
        "lat": "35.05352",
        "lng": "69.25654"
    },
    {
        "country": "AF",
        "name": "Qaranghū Tōghaī",
        "lat": "37.21528",
        "lng": "67.63972"
    },
    {
        "country": "AF",
        "name": "Bāzārak",
        "lat": "35.31292",
        "lng": "69.51519"
    },
    {
        "country": "AF",
        "name": "Shērwānī-ye Bālā",
        "lat": "35.01468",
        "lng": "69.59934"
    },
    {
        "country": "AF",
        "name": "Kirāmān",
        "lat": "35.2973",
        "lng": "69.68125"
    },
    {
        "country": "AF",
        "name": "‘Alāqahdārī Saṟōbī",
        "lat": "32.79331",
        "lng": "69.0866"
    },
    {
        "country": "AF",
        "name": "Zerok-Alakadari",
        "lat": "33.15806",
        "lng": "69.31278"
    },
    {
        "country": "AF",
        "name": "Kushkak",
        "lat": "32.28991",
        "lng": "61.52194"
    },
    {
        "country": "AF",
        "name": "Khayr Kōṯ",
        "lat": "32.85355",
        "lng": "68.44971"
    },
    {
        "country": "AF",
        "name": "Chowṉêy",
        "lat": "33.38278",
        "lng": "66.27233"
    },
    {
        "country": "AF",
        "name": "Wuṯahpūr",
        "lat": "34.91914",
        "lng": "71.09863"
    },
    {
        "country": "AF",
        "name": "Karbori",
        "lat": "34.96597",
        "lng": "71.2746"
    },
    {
        "country": "AF",
        "name": "Sulţānpūr-e ‘Ulyā",
        "lat": "34.41204",
        "lng": "70.29634"
    },
    {
        "country": "AF",
        "name": "Babasakhib",
        "lat": "31.66144",
        "lng": "65.66098"
    },
    {
        "country": "AF",
        "name": "Chandal Bā’ī",
        "lat": "34.58469",
        "lng": "68.95524"
    },
    {
        "country": "AF",
        "name": "Dahan-e Jarf",
        "lat": "34.92891",
        "lng": "68.46273"
    },
    {
        "country": "AF",
        "name": "Maydanshakhr",
        "lat": "34.39561",
        "lng": "68.86618"
    },
    {
        "country": "AF",
        "name": "Dū Laīnah",
        "lat": "34.15599",
        "lng": "64.78566"
    },
    {
        "country": "AF",
        "name": "Qaram Qōl",
        "lat": "36.83006",
        "lng": "65.04299"
    },
    {
        "country": "AF",
        "name": "Pul-e Ḩişār",
        "lat": "35.61794",
        "lng": "69.47134"
    },
    {
        "country": "AF",
        "name": "Lab-Sar",
        "lat": "36.02634",
        "lng": "66.83799"
    },
    {
        "country": "AF",
        "name": "Ţāqchah Khānah",
        "lat": "36.61922",
        "lng": "69.62805"
    },
    {
        "country": "AF",
        "name": "March",
        "lat": "37.52845",
        "lng": "70.4482"
    },
    {
        "country": "AF",
        "name": "Zīrakī",
        "lat": "37.59233",
        "lng": "70.55814"
    },
    {
        "country": "AF",
        "name": "Aliabad",
        "lat": "36.52115",
        "lng": "68.89985"
    },
    {
        "country": "AF",
        "name": "Pas Pul",
        "lat": "37.47355",
        "lng": "70.61617"
    },
    {
        "country": "AF",
        "name": "Qal‘ah-ye Na‘īm",
        "lat": "34.39951",
        "lng": "69.16705"
    },
    {
        "country": "AF",
        "name": "Markaz-e Woluswalī-ye Āchīn",
        "lat": "34.12583",
        "lng": "70.70778"
    },
    {
        "country": "AF",
        "name": "Manogay",
        "lat": "34.99015",
        "lng": "70.91302"
    },
    {
        "country": "AF",
        "name": "Stêr Giyān",
        "lat": "32.97704",
        "lng": "69.37308"
    },
    {
        "country": "AF",
        "name": "Sharan",
        "lat": "33.17568",
        "lng": "68.73045"
    },
    {
        "country": "AF",
        "name": "Salām Khēl",
        "lat": "33.67067",
        "lng": "69.32983"
    },
    {
        "country": "AG",
        "name": "Saint John’s",
        "lat": "17.12096",
        "lng": "-61.84329"
    },
    {
        "country": "AG",
        "name": "Potters Village",
        "lat": "17.11337",
        "lng": "-61.81962"
    },
    {
        "country": "AG",
        "name": "Piggotts",
        "lat": "17.11667",
        "lng": "-61.8"
    },
    {
        "country": "AG",
        "name": "Parham",
        "lat": "17.09682",
        "lng": "-61.77046"
    },
    {
        "country": "AG",
        "name": "Liberta",
        "lat": "17.04141",
        "lng": "-61.79052"
    },
    {
        "country": "AG",
        "name": "Falmouth",
        "lat": "17.02741",
        "lng": "-61.78136"
    },
    {
        "country": "AG",
        "name": "Codrington",
        "lat": "17.63333",
        "lng": "-61.83333"
    },
    {
        "country": "AG",
        "name": "Bolands",
        "lat": "17.06565",
        "lng": "-61.87466"
    },
    {
        "country": "AG",
        "name": "All Saints",
        "lat": "17.06671",
        "lng": "-61.79303"
    },
    {
        "country": "AI",
        "name": "West End Village",
        "lat": "18.17191",
        "lng": "-63.14941"
    },
    {
        "country": "AI",
        "name": "The Valley",
        "lat": "18.21704",
        "lng": "-63.05783"
    },
    {
        "country": "AI",
        "name": "The Quarter",
        "lat": "18.20799",
        "lng": "-63.04178"
    },
    {
        "country": "AI",
        "name": "Farrington",
        "lat": "18.215",
        "lng": "-63.02238"
    },
    {
        "country": "AI",
        "name": "Stoney Ground",
        "lat": "18.22026",
        "lng": "-63.04607"
    },
    {
        "country": "AI",
        "name": "South Hill Village",
        "lat": "18.19201",
        "lng": "-63.08779"
    },
    {
        "country": "AI",
        "name": "Sandy Ground Village",
        "lat": "18.20118",
        "lng": "-63.08998"
    },
    {
        "country": "AI",
        "name": "North Side",
        "lat": "18.22919",
        "lng": "-63.04401"
    },
    {
        "country": "AI",
        "name": "North Hill Village",
        "lat": "18.20542",
        "lng": "-63.07847"
    },
    {
        "country": "AI",
        "name": "Island Harbour",
        "lat": "18.25601",
        "lng": "-63.0102"
    },
    {
        "country": "AI",
        "name": "George Hill",
        "lat": "18.19939",
        "lng": "-63.0665"
    },
    {
        "country": "AI",
        "name": "East End Village",
        "lat": "18.23333",
        "lng": "-63"
    },
    {
        "country": "AI",
        "name": "Blowing Point Village",
        "lat": "18.17648",
        "lng": "-63.09375"
    },
    {
        "country": "AI",
        "name": "Sandy Hill",
        "lat": "18.22104",
        "lng": "-63.01329"
    },
    {
        "country": "AL",
        "name": "Xarrë",
        "lat": "39.72833",
        "lng": "20.05444"
    },
    {
        "country": "AL",
        "name": "Sarandë",
        "lat": "39.87534",
        "lng": "20.00477"
    },
    {
        "country": "AL",
        "name": "Mesopotam",
        "lat": "39.91028",
        "lng": "20.09222"
    },
    {
        "country": "AL",
        "name": "Markat",
        "lat": "39.73278",
        "lng": "20.19528"
    },
    {
        "country": "AL",
        "name": "Livadhja",
        "lat": "39.78917",
        "lng": "20.12194"
    },
    {
        "country": "AL",
        "name": "Konispol",
        "lat": "39.65889",
        "lng": "20.18139"
    },
    {
        "country": "AL",
        "name": "Kakavijë",
        "lat": "39.90778",
        "lng": "20.35833"
    },
    {
        "country": "AL",
        "name": "Finiq",
        "lat": "39.90639",
        "lng": "20.05833"
    },
    {
        "country": "AL",
        "name": "Dhivër",
        "lat": "39.83611",
        "lng": "20.16861"
    },
    {
        "country": "AL",
        "name": "Delvinë",
        "lat": "39.95111",
        "lng": "20.09778"
    },
    {
        "country": "AL",
        "name": "Aliko",
        "lat": "39.85861",
        "lng": "20.07917"
    },
    {
        "country": "AL",
        "name": "Buçimas",
        "lat": "40.89139",
        "lng": "20.68139"
    },
    {
        "country": "AL",
        "name": "Zhepë",
        "lat": "40.67778",
        "lng": "20.28694"
    },
    {
        "country": "AL",
        "name": "Zerqan",
        "lat": "41.50222",
        "lng": "20.36056"
    },
    {
        "country": "AL",
        "name": "Zavalinë",
        "lat": "40.98083",
        "lng": "20.28083"
    },
    {
        "country": "AL",
        "name": "Zapod",
        "lat": "42.05056",
        "lng": "20.5525"
    },
    {
        "country": "AL",
        "name": "Zall-Reç",
        "lat": "41.87611",
        "lng": "20.32"
    },
    {
        "country": "AL",
        "name": "Zall-Dardhë",
        "lat": "41.80667",
        "lng": "20.33611"
    },
    {
        "country": "AL",
        "name": "Xibër-Murrizë",
        "lat": "41.45472",
        "lng": "20.02556"
    },
    {
        "country": "AL",
        "name": "Vreshtas",
        "lat": "40.79694",
        "lng": "20.77694"
    },
    {
        "country": "AL",
        "name": "Voskopojë",
        "lat": "40.63306",
        "lng": "20.58889"
    },
    {
        "country": "AL",
        "name": "Voskop",
        "lat": "40.61194",
        "lng": "20.69028"
    },
    {
        "country": "AL",
        "name": "Vithkuq",
        "lat": "40.525",
        "lng": "20.5825"
    },
    {
        "country": "AL",
        "name": "Vithkuq",
        "lat": "40.20472",
        "lng": "20.25944"
    },
    {
        "country": "AL",
        "name": "Vërtop",
        "lat": "40.62889",
        "lng": "20.05389"
    },
    {
        "country": "AL",
        "name": "Vergo",
        "lat": "40.00667",
        "lng": "20.00889"
    },
    {
        "country": "AL",
        "name": "Vendresha e Vogël",
        "lat": "40.50722",
        "lng": "20.13472"
    },
    {
        "country": "AL",
        "name": "Velçan",
        "lat": "40.95472",
        "lng": "20.46222"
    },
    {
        "country": "AL",
        "name": "Ujmisht",
        "lat": "41.90833",
        "lng": "20.34694"
    },
    {
        "country": "AL",
        "name": "Udënisht",
        "lat": "40.96333",
        "lng": "20.63917"
    },
    {
        "country": "AL",
        "name": "Tunjë",
        "lat": "40.83417",
        "lng": "20.11194"
    },
    {
        "country": "AL",
        "name": "Tregan",
        "lat": "41.02472",
        "lng": "20.07833"
    },
    {
        "country": "AL",
        "name": "Trebisht-Muçinë",
        "lat": "41.41111",
        "lng": "20.53556"
    },
    {
        "country": "AL",
        "name": "Trebinjë",
        "lat": "40.91333",
        "lng": "20.55306"
    },
    {
        "country": "AL",
        "name": "Topojan",
        "lat": "40.37722",
        "lng": "20.21333"
    },
    {
        "country": "AL",
        "name": "Tomin",
        "lat": "41.69083",
        "lng": "20.42167"
    },
    {
        "country": "AL",
        "name": "Tepelenë",
        "lat": "40.29583",
        "lng": "20.01917"
    },
    {
        "country": "AL",
        "name": "Surroj",
        "lat": "41.99222",
        "lng": "20.34417"
    },
    {
        "country": "AL",
        "name": "Sult",
        "lat": "40.88472",
        "lng": "20.09944"
    },
    {
        "country": "AL",
        "name": "Sukë",
        "lat": "40.37528",
        "lng": "20.15472"
    },
    {
        "country": "AL",
        "name": "Suç",
        "lat": "41.57694",
        "lng": "20.05139"
    },
    {
        "country": "AL",
        "name": "Stravaj",
        "lat": "41.00528",
        "lng": "20.42306"
    },
    {
        "country": "AL",
        "name": "Steblevë",
        "lat": "41.33722",
        "lng": "20.47"
    },
    {
        "country": "AL",
        "name": "Sllovë",
        "lat": "41.80111",
        "lng": "20.40833"
    },
    {
        "country": "AL",
        "name": "Skore",
        "lat": "40.10722",
        "lng": "20.36639"
    },
    {
        "country": "AL",
        "name": "Skënderbegas",
        "lat": "40.77611",
        "lng": "20.24056"
    },
    {
        "country": "AL",
        "name": "Shushicë",
        "lat": "41.0975",
        "lng": "20.14833"
    },
    {
        "country": "AL",
        "name": "Shupenzë",
        "lat": "41.53",
        "lng": "20.42361"
    },
    {
        "country": "AL",
        "name": "Shtiqën",
        "lat": "42.04056",
        "lng": "20.43417"
    },
    {
        "country": "AL",
        "name": "Shishtavec",
        "lat": "41.98",
        "lng": "20.60583"
    },
    {
        "country": "AL",
        "name": "Shirgjan",
        "lat": "41.05194",
        "lng": "20.05333"
    },
    {
        "country": "AL",
        "name": "Shëngjin",
        "lat": "41.92611",
        "lng": "20.18833"
    },
    {
        "country": "AL",
        "name": "Shënmëri",
        "lat": "42.10417",
        "lng": "20.23833"
    },
    {
        "country": "AL",
        "name": "Selishtë",
        "lat": "41.6275",
        "lng": "20.27917"
    },
    {
        "country": "AL",
        "name": "Saraqinishtë",
        "lat": "40.10528",
        "lng": "20.22944"
    },
    {
        "country": "AL",
        "name": "Rukaj",
        "lat": "41.68361",
        "lng": "20.01917"
    },
    {
        "country": "AL",
        "name": "Rajcë",
        "lat": "41.09028",
        "lng": "20.57639"
    },
    {
        "country": "AL",
        "name": "Roshnik",
        "lat": "40.73278",
        "lng": "20.03944"
    },
    {
        "country": "AL",
        "name": "Qukës-Skënderbe",
        "lat": "41.08389",
        "lng": "20.43806"
    },
    {
        "country": "AL",
        "name": "Qestorat",
        "lat": "40.1175",
        "lng": "20.19972"
    },
    {
        "country": "AL",
        "name": "Qafëmal",
        "lat": "42.09333",
        "lng": "20.09056"
    },
    {
        "country": "AL",
        "name": "Përrenjas-Fshat",
        "lat": "41.06667",
        "lng": "20.53528"
    },
    {
        "country": "AL",
        "name": "Përrenjas",
        "lat": "41.07306",
        "lng": "20.54889"
    },
    {
        "country": "AL",
        "name": "Proptisht",
        "lat": "40.98611",
        "lng": "20.5025"
    },
    {
        "country": "AL",
        "name": "Progër",
        "lat": "40.69417",
        "lng": "20.94028"
    },
    {
        "country": "AL",
        "name": "Potom",
        "lat": "40.48833",
        "lng": "20.37333"
    },
    {
        "country": "AL",
        "name": "Poroçan",
        "lat": "40.94194",
        "lng": "20.29861"
    },
    {
        "country": "AL",
        "name": "Polis-Gostimë",
        "lat": "41.13333",
        "lng": "20.25833"
    },
    {
        "country": "AL",
        "name": "Poliçan",
        "lat": "40.61222",
        "lng": "20.09806"
    },
    {
        "country": "AL",
        "name": "Pojan",
        "lat": "40.72583",
        "lng": "20.8375"
    },
    {
        "country": "AL",
        "name": "Pogradec",
        "lat": "40.9025",
        "lng": "20.6525"
    },
    {
        "country": "AL",
        "name": "Pishaj",
        "lat": "40.88111",
        "lng": "20.18278"
    },
    {
        "country": "AL",
        "name": "Pirg",
        "lat": "40.785",
        "lng": "20.70611"
    },
    {
        "country": "AL",
        "name": "Gjinkar",
        "lat": "40.19944",
        "lng": "20.40611"
    },
    {
        "country": "AL",
        "name": "Petran",
        "lat": "40.20944",
        "lng": "20.41833"
    },
    {
        "country": "AL",
        "name": "Peshkopi",
        "lat": "41.685",
        "lng": "20.42889"
    },
    {
        "country": "AL",
        "name": "Përmet",
        "lat": "40.23361",
        "lng": "20.35167"
    },
    {
        "country": "AL",
        "name": "Ostreni i Math",
        "lat": "41.43083",
        "lng": "20.45556"
    },
    {
        "country": "AL",
        "name": "Orosh",
        "lat": "41.83333",
        "lng": "20.08333"
    },
    {
        "country": "AL",
        "name": "Orenjë",
        "lat": "41.28472",
        "lng": "20.21194"
    },
    {
        "country": "AL",
        "name": "Odrie",
        "lat": "40.13333",
        "lng": "20.16667"
    },
    {
        "country": "AL",
        "name": "Novoselë",
        "lat": "40.76139",
        "lng": "20.69833"
    },
    {
        "country": "AL",
        "name": "Picar",
        "lat": "40.16667",
        "lng": "20.04833"
    },
    {
        "country": "AL",
        "name": "Mollas",
        "lat": "40.92694",
        "lng": "20.00361"
    },
    {
        "country": "AL",
        "name": "Mollas",
        "lat": "40.42556",
        "lng": "20.67444"
    },
    {
        "country": "AL",
        "name": "Mollaj",
        "lat": "40.56028",
        "lng": "20.74028"
    },
    {
        "country": "AL",
        "name": "Miras",
        "lat": "40.50917",
        "lng": "20.92833"
    },
    {
        "country": "AL",
        "name": "Melan",
        "lat": "41.65417",
        "lng": "20.46528"
    },
    {
        "country": "AL",
        "name": "Martanesh",
        "lat": "41.4",
        "lng": "20.2"
    },
    {
        "country": "AL",
        "name": "Maqellarë",
        "lat": "41.58889",
        "lng": "20.48306"
    },
    {
        "country": "AL",
        "name": "Maliq",
        "lat": "40.70583",
        "lng": "20.69972"
    },
    {
        "country": "AL",
        "name": "Macukull",
        "lat": "41.68861",
        "lng": "20.11028"
    },
    {
        "country": "AL",
        "name": "Lunik",
        "lat": "41.28917",
        "lng": "20.32361"
    },
    {
        "country": "AL",
        "name": "Llugaj",
        "lat": "42.34139",
        "lng": "20.10861"
    },
    {
        "country": "AL",
        "name": "Lis",
        "lat": "41.6275",
        "lng": "20.08528"
    },
    {
        "country": "AL",
        "name": "Liqenas",
        "lat": "40.78667",
        "lng": "20.90222"
    },
    {
        "country": "AL",
        "name": "Librazhd",
        "lat": "41.17944",
        "lng": "20.315"
    },
    {
        "country": "AL",
        "name": "Libonik",
        "lat": "40.70444",
        "lng": "20.70861"
    },
    {
        "country": "AL",
        "name": "Libohovë",
        "lat": "40.03111",
        "lng": "20.26306"
    },
    {
        "country": "AL",
        "name": "Leskovik",
        "lat": "40.15139",
        "lng": "20.59722"
    },
    {
        "country": "AL",
        "name": "Leshnjë",
        "lat": "40.53694",
        "lng": "20.31333"
    },
    {
        "country": "AL",
        "name": "Lenias",
        "lat": "40.76667",
        "lng": "20.39139"
    },
    {
        "country": "AL",
        "name": "Lekas",
        "lat": "40.60222",
        "lng": "20.5125"
    },
    {
        "country": "AL",
        "name": "Lazarat",
        "lat": "40.04667",
        "lng": "20.1475"
    },
    {
        "country": "AL",
        "name": "Labinot-Mal",
        "lat": "41.20083",
        "lng": "20.15222"
    },
    {
        "country": "AL",
        "name": "Labinot-Fushë",
        "lat": "41.14056",
        "lng": "20.14611"
    },
    {
        "country": "AL",
        "name": "Kushovë",
        "lat": "40.78889",
        "lng": "20.18889"
    },
    {
        "country": "AL",
        "name": "Kurbnesh",
        "lat": "41.77972",
        "lng": "20.08361"
    },
    {
        "country": "AL",
        "name": "Kukur",
        "lat": "40.86778",
        "lng": "20.36361"
    },
    {
        "country": "AL",
        "name": "Kukës",
        "lat": "42.07694",
        "lng": "20.42194"
    },
    {
        "country": "AL",
        "name": "Kthella e Epërme",
        "lat": "41.81194",
        "lng": "20.05889"
    },
    {
        "country": "AL",
        "name": "Krumë",
        "lat": "42.19694",
        "lng": "20.41333"
    },
    {
        "country": "AL",
        "name": "Korçë",
        "lat": "40.61861",
        "lng": "20.78083"
    },
    {
        "country": "AL",
        "name": "Kolsh",
        "lat": "42.07806",
        "lng": "20.34194"
    },
    {
        "country": "AL",
        "name": "Kodovjat",
        "lat": "40.80556",
        "lng": "20.25111"
    },
    {
        "country": "AL",
        "name": "Klos",
        "lat": "41.50694",
        "lng": "20.08667"
    },
    {
        "country": "AL",
        "name": "Klos",
        "lat": "40.94611",
        "lng": "20.00972"
    },
    {
        "country": "AL",
        "name": "Këlcyrë",
        "lat": "40.31306",
        "lng": "20.18944"
    },
    {
        "country": "AL",
        "name": "Kastriot",
        "lat": "41.72944",
        "lng": "20.37722"
    },
    {
        "country": "AL",
        "name": "Kardhiq",
        "lat": "40.12167",
        "lng": "20.0275"
    },
    {
        "country": "AL",
        "name": "Kalis",
        "lat": "41.83889",
        "lng": "20.36667"
    },
    {
        "country": "AL",
        "name": "Iballë",
        "lat": "42.1875",
        "lng": "20.0025"
    },
    {
        "country": "AL",
        "name": "Hotolisht",
        "lat": "41.15667",
        "lng": "20.39722"
    },
    {
        "country": "AL",
        "name": "Hoçisht",
        "lat": "40.60833",
        "lng": "20.91417"
    },
    {
        "country": "AL",
        "name": "Gramsh",
        "lat": "40.86972",
        "lng": "20.18444"
    },
    {
        "country": "AL",
        "name": "Gostimë",
        "lat": "41.14556",
        "lng": "20.24"
    },
    {
        "country": "AL",
        "name": "Golaj",
        "lat": "42.2475",
        "lng": "20.38028"
    },
    {
        "country": "AL",
        "name": "Gjorica e Sipërme",
        "lat": "41.53444",
        "lng": "20.45"
    },
    {
        "country": "AL",
        "name": "Gjirokastër",
        "lat": "40.07583",
        "lng": "20.13889"
    },
    {
        "country": "AL",
        "name": "Gjinar",
        "lat": "41.0225",
        "lng": "20.18889"
    },
    {
        "country": "AL",
        "name": "Gjinaj",
        "lat": "42.11806",
        "lng": "20.43583"
    },
    {
        "country": "AL",
        "name": "Gjergjan",
        "lat": "41.04306",
        "lng": "20.02972"
    },
    {
        "country": "AL",
        "name": "Gjegjan",
        "lat": "41.93778",
        "lng": "20.01111"
    },
    {
        "country": "AL",
        "name": "Fushë-Muhurr",
        "lat": "41.67972",
        "lng": "20.33139"
    },
    {
        "country": "AL",
        "name": "Fushë-Lurë",
        "lat": "41.80611",
        "lng": "20.23194"
    },
    {
        "country": "AL",
        "name": "Fushë-Çidhnë",
        "lat": "41.76056",
        "lng": "20.34111"
    },
    {
        "country": "AL",
        "name": "Fushë-Bulqizë",
        "lat": "41.52194",
        "lng": "20.28222"
    },
    {
        "country": "AL",
        "name": "Fushë-Arrëz",
        "lat": "42.06222",
        "lng": "20.01667"
    },
    {
        "country": "AL",
        "name": "Frashër",
        "lat": "40.36889",
        "lng": "20.42444"
    },
    {
        "country": "AL",
        "name": "Fierzë",
        "lat": "42.26056",
        "lng": "20.01694"
    },
    {
        "country": "AL",
        "name": "Fajzë",
        "lat": "42.16694",
        "lng": "20.35083"
    },
    {
        "country": "AL",
        "name": "Ersekë",
        "lat": "40.33778",
        "lng": "20.67889"
    },
    {
        "country": "AL",
        "name": "Elbasan",
        "lat": "41.1125",
        "lng": "20.08222"
    },
    {
        "country": "AL",
        "name": "Drenovë",
        "lat": "40.58333",
        "lng": "20.79222"
    },
    {
        "country": "AL",
        "name": "Dishnicë",
        "lat": "40.65139",
        "lng": "20.81361"
    },
    {
        "country": "AL",
        "name": "Derjan",
        "lat": "41.67361",
        "lng": "20.05833"
    },
    {
        "country": "AL",
        "name": "Gjerbës",
        "lat": "40.62917",
        "lng": "20.25111"
    },
    {
        "country": "AL",
        "name": "Çorovodë",
        "lat": "40.50417",
        "lng": "20.22722"
    },
    {
        "country": "AL",
        "name": "Çlirim",
        "lat": "40.4175",
        "lng": "20.55028"
    },
    {
        "country": "AL",
        "name": "Cerava",
        "lat": "40.85139",
        "lng": "20.725"
    },
    {
        "country": "AL",
        "name": "Çepan",
        "lat": "40.42056",
        "lng": "20.26056"
    },
    {
        "country": "AL",
        "name": "Çarshovë",
        "lat": "40.11806",
        "lng": "20.54083"
    },
    {
        "country": "AL",
        "name": "Kokaj",
        "lat": "41.87833",
        "lng": "20.50472"
    },
    {
        "country": "AL",
        "name": "Buz",
        "lat": "40.445",
        "lng": "20.00472"
    },
    {
        "country": "AL",
        "name": "Bushtricë",
        "lat": "41.87861",
        "lng": "20.42194"
    },
    {
        "country": "AL",
        "name": "Burrel",
        "lat": "41.61028",
        "lng": "20.00889"
    },
    {
        "country": "AL",
        "name": "Bulqizë",
        "lat": "41.49167",
        "lng": "20.22194"
    },
    {
        "country": "AL",
        "name": "Bujan",
        "lat": "42.32639",
        "lng": "20.07639"
    },
    {
        "country": "AL",
        "name": "Bradashesh",
        "lat": "41.105",
        "lng": "20.0225"
    },
    {
        "country": "AL",
        "name": "Blinisht",
        "lat": "41.86139",
        "lng": "20"
    },
    {
        "country": "AL",
        "name": "Blerim",
        "lat": "42.16056",
        "lng": "20.19194"
    },
    {
        "country": "AL",
        "name": "Bilisht",
        "lat": "40.6275",
        "lng": "20.99"
    },
    {
        "country": "AL",
        "name": "Bicaj",
        "lat": "41.99472",
        "lng": "20.4125"
    },
    {
        "country": "AL",
        "name": "Dardhas",
        "lat": "40.84583",
        "lng": "20.65722"
    },
    {
        "country": "AL",
        "name": "Barmash",
        "lat": "40.27778",
        "lng": "20.61833"
    },
    {
        "country": "AL",
        "name": "Ballaban",
        "lat": "40.41667",
        "lng": "20.13444"
    },
    {
        "country": "AL",
        "name": "Arrën",
        "lat": "41.91306",
        "lng": "20.28833"
    },
    {
        "country": "AL",
        "name": "Arras",
        "lat": "41.73583",
        "lng": "20.32417"
    },
    {
        "country": "AL",
        "name": "Bytyç",
        "lat": "42.31",
        "lng": "20.20278"
    },
    {
        "country": "AL",
        "name": "Librazhd-Qendër",
        "lat": "41.19694",
        "lng": "20.33556"
    },
    {
        "country": "AL",
        "name": "Funarë",
        "lat": "41.19639",
        "lng": "20.05972"
    },
    {
        "country": "AL",
        "name": "Moglicë",
        "lat": "40.71806",
        "lng": "20.43806"
    },
    {
        "country": "AL",
        "name": "Bogovë",
        "lat": "40.57111",
        "lng": "20.15"
    },
    {
        "country": "AL",
        "name": "Piskovë",
        "lat": "40.27917",
        "lng": "20.2725"
    },
    {
        "country": "AL",
        "name": "Lukovë",
        "lat": "39.99222",
        "lng": "19.91389"
    },
    {
        "country": "AL",
        "name": "Ksamil",
        "lat": "39.76889",
        "lng": "19.99972"
    },
    {
        "country": "AL",
        "name": "Zharrëz",
        "lat": "40.70917",
        "lng": "19.64972"
    },
    {
        "country": "AL",
        "name": "Zejmen",
        "lat": "41.70778",
        "lng": "19.68917"
    },
    {
        "country": "AL",
        "name": "Zall-Herr",
        "lat": "41.38944",
        "lng": "19.8275"
    },
    {
        "country": "AL",
        "name": "Zall-Bastar",
        "lat": "41.42972",
        "lng": "19.93028"
    },
    {
        "country": "AL",
        "name": "Xhafzotaj",
        "lat": "41.34444",
        "lng": "19.5475"
    },
    {
        "country": "AL",
        "name": "Vukatanë",
        "lat": "42.02806",
        "lng": "19.54778"
    },
    {
        "country": "AL",
        "name": "Vranisht",
        "lat": "40.20972",
        "lng": "19.69083"
    },
    {
        "country": "AL",
        "name": "Vorë",
        "lat": "41.39083",
        "lng": "19.655"
    },
    {
        "country": "AL",
        "name": "Vlorë",
        "lat": "40.46667",
        "lng": "19.48972"
    },
    {
        "country": "AL",
        "name": "Velipojë",
        "lat": "41.87833",
        "lng": "19.40556"
    },
    {
        "country": "AL",
        "name": "Velabisht",
        "lat": "40.70167",
        "lng": "19.93222"
    },
    {
        "country": "AL",
        "name": "Vaqarr",
        "lat": "41.29917",
        "lng": "19.74417"
    },
    {
        "country": "AL",
        "name": "Ura Vajgurore",
        "lat": "40.76889",
        "lng": "19.87778"
    },
    {
        "country": "AL",
        "name": "Ungrej",
        "lat": "41.87528",
        "lng": "19.79472"
    },
    {
        "country": "AL",
        "name": "Ulëz",
        "lat": "41.68278",
        "lng": "19.89333"
    },
    {
        "country": "AL",
        "name": "Topojë",
        "lat": "40.76306",
        "lng": "19.43278"
    },
    {
        "country": "AL",
        "name": "Tirana",
        "lat": "41.3275",
        "lng": "19.81889"
    },
    {
        "country": "AL",
        "name": "Thumanë",
        "lat": "41.5475",
        "lng": "19.67778"
    },
    {
        "country": "AL",
        "name": "Tërbuf",
        "lat": "41.04",
        "lng": "19.61417"
    },
    {
        "country": "AL",
        "name": "Synej",
        "lat": "41.18",
        "lng": "19.5425"
    },
    {
        "country": "AL",
        "name": "Sukth",
        "lat": "41.38056",
        "lng": "19.53778"
    },
    {
        "country": "AL",
        "name": "Strum",
        "lat": "40.75111",
        "lng": "19.7375"
    },
    {
        "country": "AL",
        "name": "Sinjë",
        "lat": "40.64806",
        "lng": "19.86806"
    },
    {
        "country": "AL",
        "name": "Sinaballaj",
        "lat": "41.06889",
        "lng": "19.69944"
    },
    {
        "country": "AL",
        "name": "Shkodër",
        "lat": "42.06828",
        "lng": "19.51258"
    },
    {
        "country": "AL",
        "name": "Shijak",
        "lat": "41.34556",
        "lng": "19.56722"
    },
    {
        "country": "AL",
        "name": "Shezë",
        "lat": "41.02417",
        "lng": "19.81611"
    },
    {
        "country": "AL",
        "name": "Shënkoll",
        "lat": "41.69083",
        "lng": "19.65333"
    },
    {
        "country": "AL",
        "name": "Shëngjin",
        "lat": "41.81361",
        "lng": "19.59389"
    },
    {
        "country": "AL",
        "name": "Shëngjergj",
        "lat": "41.18333",
        "lng": "19.53333"
    },
    {
        "country": "AL",
        "name": "Shalës",
        "lat": "40.99861",
        "lng": "19.94778"
    },
    {
        "country": "AL",
        "name": "Nicaj-Shalë",
        "lat": "42.29944",
        "lng": "19.805"
    },
    {
        "country": "AL",
        "name": "Sevaster",
        "lat": "40.39639",
        "lng": "19.72972"
    },
    {
        "country": "AL",
        "name": "Selitë",
        "lat": "41.63528",
        "lng": "19.755"
    },
    {
        "country": "AL",
        "name": "Valbonë",
        "lat": "42.45139",
        "lng": "19.89167"
    },
    {
        "country": "AL",
        "name": "Selenicë",
        "lat": "40.53056",
        "lng": "19.63583"
    },
    {
        "country": "AL",
        "name": "Ruzhdie",
        "lat": "40.67083",
        "lng": "19.69833"
    },
    {
        "country": "AL",
        "name": "Rubik",
        "lat": "41.77444",
        "lng": "19.78611"
    },
    {
        "country": "AL",
        "name": "Rrogozhinë",
        "lat": "41.07639",
        "lng": "19.66528"
    },
    {
        "country": "AL",
        "name": "Rrëshen",
        "lat": "41.7675",
        "lng": "19.87556"
    },
    {
        "country": "AL",
        "name": "Rrashbull",
        "lat": "41.32278",
        "lng": "19.51028"
    },
    {
        "country": "AL",
        "name": "Rrasa e Sipërme",
        "lat": "40.96778",
        "lng": "19.82111"
    },
    {
        "country": "AL",
        "name": "Rrapë",
        "lat": "42.04444",
        "lng": "19.97056"
    },
    {
        "country": "AL",
        "name": "Roskovec",
        "lat": "40.7375",
        "lng": "19.70222"
    },
    {
        "country": "AL",
        "name": "Remas",
        "lat": "40.88639",
        "lng": "19.51139"
    },
    {
        "country": "AL",
        "name": "Qerret",
        "lat": "42.05306",
        "lng": "19.83722"
    },
    {
        "country": "AL",
        "name": "Qelëz",
        "lat": "42.08972",
        "lng": "19.895"
    },
    {
        "country": "AL",
        "name": "Pukë",
        "lat": "42.04444",
        "lng": "19.89972"
    },
    {
        "country": "AL",
        "name": "Progonat",
        "lat": "40.21333",
        "lng": "19.94472"
    },
    {
        "country": "AL",
        "name": "Prezë",
        "lat": "41.42722",
        "lng": "19.67278"
    },
    {
        "country": "AL",
        "name": "Poshnje",
        "lat": "40.78028",
        "lng": "19.84417"
    },
    {
        "country": "AL",
        "name": "Portëz",
        "lat": "40.69917",
        "lng": "19.57444"
    },
    {
        "country": "AL",
        "name": "Peza e Madhe",
        "lat": "41.2175",
        "lng": "19.69611"
    },
    {
        "country": "AL",
        "name": "Petrelë",
        "lat": "41.25306",
        "lng": "19.85306"
    },
    {
        "country": "AL",
        "name": "Përparim",
        "lat": "41.05",
        "lng": "19.79917"
    },
    {
        "country": "AL",
        "name": "Perondi",
        "lat": "40.77889",
        "lng": "19.92306"
    },
    {
        "country": "AL",
        "name": "Peqin",
        "lat": "41.04611",
        "lng": "19.75111"
    },
    {
        "country": "AL",
        "name": "Patos Fshat",
        "lat": "40.64278",
        "lng": "19.65083"
    },
    {
        "country": "AL",
        "name": "Patos",
        "lat": "40.68333",
        "lng": "19.61944"
    },
    {
        "country": "AL",
        "name": "Paskuqan",
        "lat": "41.35389",
        "lng": "19.80667"
    },
    {
        "country": "AL",
        "name": "Papër",
        "lat": "41.05167",
        "lng": "19.96083"
    },
    {
        "country": "AL",
        "name": "Pajovë",
        "lat": "41.05472",
        "lng": "19.8375"
    },
    {
        "country": "AL",
        "name": "Otllak",
        "lat": "40.74389",
        "lng": "19.93528"
    },
    {
        "country": "AL",
        "name": "Orikum",
        "lat": "40.32528",
        "lng": "19.47139"
    },
    {
        "country": "AL",
        "name": "Novoselë",
        "lat": "40.625",
        "lng": "19.46694"
    },
    {
        "country": "AL",
        "name": "Nikël",
        "lat": "41.44417",
        "lng": "19.74833"
    },
    {
        "country": "AL",
        "name": "Nicaj-Shosh",
        "lat": "42.24444",
        "lng": "19.75806"
    },
    {
        "country": "AL",
        "name": "Ngraçan",
        "lat": "40.64444",
        "lng": "19.7925"
    },
    {
        "country": "AL",
        "name": "Ndroq",
        "lat": "41.26389",
        "lng": "19.65583"
    },
    {
        "country": "AL",
        "name": "Milot",
        "lat": "41.68389",
        "lng": "19.71556"
    },
    {
        "country": "AL",
        "name": "Memaliaj",
        "lat": "40.35167",
        "lng": "19.98028"
    },
    {
        "country": "AL",
        "name": "Mbrostar-Urë",
        "lat": "40.75361",
        "lng": "19.57944"
    },
    {
        "country": "AL",
        "name": "Manzë",
        "lat": "41.42861",
        "lng": "19.59306"
    },
    {
        "country": "AL",
        "name": "Mamurras",
        "lat": "41.5775",
        "lng": "19.69222"
    },
    {
        "country": "AL",
        "name": "Maminas",
        "lat": "41.37917",
        "lng": "19.6075"
    },
    {
        "country": "AL",
        "name": "Luzi i Vogël",
        "lat": "41.1275",
        "lng": "19.57389"
    },
    {
        "country": "AL",
        "name": "Lushnjë",
        "lat": "40.94194",
        "lng": "19.705"
    },
    {
        "country": "AL",
        "name": "Luftinjë",
        "lat": "40.44278",
        "lng": "19.95444"
    },
    {
        "country": "AL",
        "name": "Libofshë",
        "lat": "40.83444",
        "lng": "19.55222"
    },
    {
        "country": "AL",
        "name": "Lezhë",
        "lat": "41.78361",
        "lng": "19.64361"
    },
    {
        "country": "AL",
        "name": "Levan",
        "lat": "40.67611",
        "lng": "19.48972"
    },
    {
        "country": "AL",
        "name": "Lekbibaj",
        "lat": "42.29472",
        "lng": "19.93167"
    },
    {
        "country": "AL",
        "name": "Lekaj",
        "lat": "41.11444",
        "lng": "19.60972"
    },
    {
        "country": "AL",
        "name": "Laç",
        "lat": "41.63556",
        "lng": "19.71306"
    },
    {
        "country": "AL",
        "name": "Kutë",
        "lat": "40.47333",
        "lng": "19.76639"
    },
    {
        "country": "AL",
        "name": "Kutalli",
        "lat": "40.78389",
        "lng": "19.78667"
    },
    {
        "country": "AL",
        "name": "Kurjan",
        "lat": "40.7175",
        "lng": "19.74556"
    },
    {
        "country": "AL",
        "name": "Kuman",
        "lat": "40.72667",
        "lng": "19.68667"
    },
    {
        "country": "AL",
        "name": "Kuçovë",
        "lat": "40.80028",
        "lng": "19.91667"
    },
    {
        "country": "AL",
        "name": "Kuç",
        "lat": "42.03972",
        "lng": "19.52528"
    },
    {
        "country": "AL",
        "name": "Kryevidh",
        "lat": "41.10056",
        "lng": "19.5275"
    },
    {
        "country": "AL",
        "name": "Krutja e Poshtme",
        "lat": "40.87194",
        "lng": "19.68083"
    },
    {
        "country": "AL",
        "name": "Krujë",
        "lat": "41.50917",
        "lng": "19.79278"
    },
    {
        "country": "AL",
        "name": "Krrabë",
        "lat": "41.21556",
        "lng": "19.97139"
    },
    {
        "country": "AL",
        "name": "Krahës",
        "lat": "40.43861",
        "lng": "19.84444"
    },
    {
        "country": "AL",
        "name": "Kozarë",
        "lat": "40.83083",
        "lng": "19.90056"
    },
    {
        "country": "AL",
        "name": "Kotë",
        "lat": "40.38944",
        "lng": "19.60222"
    },
    {
        "country": "AL",
        "name": "Koplik",
        "lat": "42.21361",
        "lng": "19.43639"
    },
    {
        "country": "AL",
        "name": "Kombësi",
        "lat": "41.58167",
        "lng": "19.98556"
    },
    {
        "country": "AL",
        "name": "Kolonjë",
        "lat": "40.82417",
        "lng": "19.60389"
    },
    {
        "country": "AL",
        "name": "Kolç",
        "lat": "41.78667",
        "lng": "19.67611"
    },
    {
        "country": "AL",
        "name": "Kavajë",
        "lat": "41.18556",
        "lng": "19.55694"
    },
    {
        "country": "AL",
        "name": "Katundi i Ri",
        "lat": "41.40306",
        "lng": "19.51806"
    },
    {
        "country": "AL",
        "name": "Kastrat",
        "lat": "42.3525",
        "lng": "19.48917"
    },
    {
        "country": "AL",
        "name": "Kashar",
        "lat": "41.34972",
        "lng": "19.71028"
    },
    {
        "country": "AL",
        "name": "Karinë",
        "lat": "41.06306",
        "lng": "19.71611"
    },
    {
        "country": "AL",
        "name": "Karbunara e Vogël",
        "lat": "40.92194",
        "lng": "19.71778"
    },
    {
        "country": "AL",
        "name": "Kamëz",
        "lat": "41.38167",
        "lng": "19.76028"
    },
    {
        "country": "AL",
        "name": "Kallmeti i Madh",
        "lat": "41.84889",
        "lng": "19.68694"
    },
    {
        "country": "AL",
        "name": "Kallmet",
        "lat": "41.41806",
        "lng": "19.82139"
    },
    {
        "country": "AL",
        "name": "Kalenjë",
        "lat": "40.59",
        "lng": "19.77833"
    },
    {
        "country": "AL",
        "name": "Kajan",
        "lat": "40.91417",
        "lng": "19.88944"
    },
    {
        "country": "AL",
        "name": "Kaçinar",
        "lat": "41.89333",
        "lng": "19.89861"
    },
    {
        "country": "AL",
        "name": "Ishëm",
        "lat": "41.54528",
        "lng": "19.6"
    },
    {
        "country": "AL",
        "name": "Hysgjokaj",
        "lat": "40.97167",
        "lng": "19.78972"
    },
    {
        "country": "AL",
        "name": "Hot",
        "lat": "42.36194",
        "lng": "19.44417"
    },
    {
        "country": "AL",
        "name": "Himarë",
        "lat": "40.10167",
        "lng": "19.74472"
    },
    {
        "country": "AL",
        "name": "Helmas",
        "lat": "41.18028",
        "lng": "19.60694"
    },
    {
        "country": "AL",
        "name": "Hekal",
        "lat": "40.56194",
        "lng": "19.73583"
    },
    {
        "country": "AL",
        "name": "Hasan",
        "lat": "41.48278",
        "lng": "19.69972"
    },
    {
        "country": "AL",
        "name": "Hajmel",
        "lat": "41.95306",
        "lng": "19.63778"
    },
    {
        "country": "AL",
        "name": "Gurra e Vogël",
        "lat": "41.53611",
        "lng": "19.99083"
    },
    {
        "country": "AL",
        "name": "Guri i Zi",
        "lat": "42.045",
        "lng": "19.57472"
    },
    {
        "country": "AL",
        "name": "Gruemirë",
        "lat": "42.15917",
        "lng": "19.51889"
    },
    {
        "country": "AL",
        "name": "Greshicë",
        "lat": "40.55194",
        "lng": "19.77833"
    },
    {
        "country": "AL",
        "name": "Grekan",
        "lat": "40.92944",
        "lng": "19.9475"
    },
    {
        "country": "AL",
        "name": "Gradishtë",
        "lat": "40.88806",
        "lng": "19.58583"
    },
    {
        "country": "AL",
        "name": "Gracen",
        "lat": "41.15194",
        "lng": "19.96361"
    },
    {
        "country": "AL",
        "name": "Grabjan",
        "lat": "40.95306",
        "lng": "19.58083"
    },
    {
        "country": "AL",
        "name": "Gosë e Madhe",
        "lat": "41.09056",
        "lng": "19.62472"
    },
    {
        "country": "AL",
        "name": "Golem",
        "lat": "40.96778",
        "lng": "19.68528"
    },
    {
        "country": "AL",
        "name": "Gjoçaj",
        "lat": "41.02556",
        "lng": "19.72389"
    },
    {
        "country": "AL",
        "name": "Gjepalaj",
        "lat": "41.33306",
        "lng": "19.57806"
    },
    {
        "country": "AL",
        "name": "Fushëkuqe",
        "lat": "41.65028",
        "lng": "19.62"
    },
    {
        "country": "AL",
        "name": "Fushë-Krujë",
        "lat": "41.47833",
        "lng": "19.71778"
    },
    {
        "country": "AL",
        "name": "Fratar",
        "lat": "40.5",
        "lng": "19.81667"
    },
    {
        "country": "AL",
        "name": "Frakulla e Madhe",
        "lat": "40.65583",
        "lng": "19.5025"
    },
    {
        "country": "AL",
        "name": "Fier-Shegan",
        "lat": "40.86722",
        "lng": "19.78528"
    },
    {
        "country": "AL",
        "name": "Fier-Çifçi",
        "lat": "40.71667",
        "lng": "19.56667"
    },
    {
        "country": "AL",
        "name": "Fier",
        "lat": "40.72389",
        "lng": "19.55611"
    },
    {
        "country": "AL",
        "name": "Farka e Madhe",
        "lat": "41.30556",
        "lng": "19.86694"
    },
    {
        "country": "AL",
        "name": "Durrës",
        "lat": "41.32355",
        "lng": "19.45469"
    },
    {
        "country": "AL",
        "name": "Drenovë",
        "lat": "40.60056",
        "lng": "19.70083"
    },
    {
        "country": "AL",
        "name": "Divjakë",
        "lat": "40.99667",
        "lng": "19.52944"
    },
    {
        "country": "AL",
        "name": "Dërmënas",
        "lat": "40.74556",
        "lng": "19.49389"
    },
    {
        "country": "AL",
        "name": "Vau i Dejës",
        "lat": "42.01",
        "lng": "19.62472"
    },
    {
        "country": "AL",
        "name": "Dajt",
        "lat": "41.39361",
        "lng": "19.91583"
    },
    {
        "country": "AL",
        "name": "Dajç",
        "lat": "41.99167",
        "lng": "19.41056"
    },
    {
        "country": "AL",
        "name": "Dajç",
        "lat": "41.91556",
        "lng": "19.60444"
    },
    {
        "country": "AL",
        "name": "Cukalat",
        "lat": "40.73028",
        "lng": "19.79056"
    },
    {
        "country": "AL",
        "name": "Cudhi Zall",
        "lat": "41.50944",
        "lng": "19.84583"
    },
    {
        "country": "AL",
        "name": "Cërrik",
        "lat": "41.03167",
        "lng": "19.97583"
    },
    {
        "country": "AL",
        "name": "Cakran",
        "lat": "40.60333",
        "lng": "19.62611"
    },
    {
        "country": "AL",
        "name": "Bushat",
        "lat": "42.11944",
        "lng": "19.89972"
    },
    {
        "country": "AL",
        "name": "Bubullimë",
        "lat": "40.81806",
        "lng": "19.64083"
    },
    {
        "country": "AL",
        "name": "Bubq",
        "lat": "41.47417",
        "lng": "19.65167"
    },
    {
        "country": "AL",
        "name": "Brataj",
        "lat": "40.26778",
        "lng": "19.66917"
    },
    {
        "country": "AL",
        "name": "Bërzhitë",
        "lat": "41.24528",
        "lng": "19.90111"
    },
    {
        "country": "AL",
        "name": "Bërxull",
        "lat": "41.38",
        "lng": "19.6875"
    },
    {
        "country": "AL",
        "name": "Bërdica e Madhe",
        "lat": "42.01528",
        "lng": "19.48167"
    },
    {
        "country": "AL",
        "name": "Berat",
        "lat": "40.70583",
        "lng": "19.95222"
    },
    {
        "country": "AL",
        "name": "Belsh",
        "lat": "40.975",
        "lng": "19.88194"
    },
    {
        "country": "AL",
        "name": "Baz",
        "lat": "41.63194",
        "lng": "19.92917"
    },
    {
        "country": "AL",
        "name": "Banaj",
        "lat": "40.82472",
        "lng": "19.83917"
    },
    {
        "country": "AL",
        "name": "Ballsh",
        "lat": "40.59889",
        "lng": "19.73472"
    },
    {
        "country": "AL",
        "name": "Ballagat",
        "lat": "40.99528",
        "lng": "19.76528"
    },
    {
        "country": "AL",
        "name": "Baldushk",
        "lat": "41.21389",
        "lng": "19.79694"
    },
    {
        "country": "AL",
        "name": "Armen",
        "lat": "40.53639",
        "lng": "19.59611"
    },
    {
        "country": "AL",
        "name": "Aranitas",
        "lat": "40.59444",
        "lng": "19.80667"
    },
    {
        "country": "AL",
        "name": "Allkaj",
        "lat": "40.8575",
        "lng": "19.75528"
    },
    {
        "country": "AL",
        "name": "Golem",
        "lat": "41.24583",
        "lng": "19.53472"
    },
    {
        "country": "AL",
        "name": "Balldreni i Ri",
        "lat": "41.81917",
        "lng": "19.64028"
    },
    {
        "country": "AL",
        "name": "Grudë-Fushë",
        "lat": "42.16222",
        "lng": "19.49667"
    },
    {
        "country": "AL",
        "name": "Fierzë",
        "lat": "40.92056",
        "lng": "19.84694"
    },
    {
        "country": "AL",
        "name": "Dushk",
        "lat": "40.72667",
        "lng": "19.75722"
    },
    {
        "country": "AL",
        "name": "Selitë",
        "lat": "40.5475",
        "lng": "19.84806"
    },
    {
        "country": "AL",
        "name": "Vllahinë",
        "lat": "40.45694",
        "lng": "19.64361"
    },
    {
        "country": "AL",
        "name": "Bajram Curri",
        "lat": "42.35734",
        "lng": "20.07679"
    },
    {
        "country": "AM",
        "name": "Zarrit’ap’",
        "lat": "39.63892",
        "lng": "45.51111"
    },
    {
        "country": "AM",
        "name": "Zangakatun",
        "lat": "39.82233",
        "lng": "45.04169"
    },
    {
        "country": "AM",
        "name": "Goravan",
        "lat": "39.90832",
        "lng": "44.73328"
    },
    {
        "country": "AM",
        "name": "Yeghegnavan",
        "lat": "39.83893",
        "lng": "44.61951"
    },
    {
        "country": "AM",
        "name": "Yeghegnadzor",
        "lat": "39.76389",
        "lng": "45.33239"
    },
    {
        "country": "AM",
        "name": "Vostan",
        "lat": "39.96515",
        "lng": "44.55937"
    },
    {
        "country": "AM",
        "name": "Vosketap’",
        "lat": "39.88114",
        "lng": "44.64917"
    },
    {
        "country": "AM",
        "name": "Vernashen",
        "lat": "39.79236",
        "lng": "45.36389"
    },
    {
        "country": "AM",
        "name": "Verishen",
        "lat": "39.53543",
        "lng": "46.32063"
    },
    {
        "country": "AM",
        "name": "Vedi",
        "lat": "39.91388",
        "lng": "44.7251"
    },
    {
        "country": "AM",
        "name": "Vayk’",
        "lat": "39.6889",
        "lng": "45.46668"
    },
    {
        "country": "AM",
        "name": "Tegh",
        "lat": "39.55826",
        "lng": "46.48054"
    },
    {
        "country": "AM",
        "name": "Surenavan",
        "lat": "39.79449",
        "lng": "44.77508"
    },
    {
        "country": "AM",
        "name": "Sisavan",
        "lat": "39.90802",
        "lng": "44.66721"
    },
    {
        "country": "AM",
        "name": "Shinuhayr",
        "lat": "39.4367",
        "lng": "46.31787"
    },
    {
        "country": "AM",
        "name": "Lusarrat",
        "lat": "39.87403",
        "lng": "44.58678"
    },
    {
        "country": "AM",
        "name": "Shahumyan",
        "lat": "39.94171",
        "lng": "44.57233"
    },
    {
        "country": "AM",
        "name": "Shatin",
        "lat": "39.83612",
        "lng": "45.30292"
    },
    {
        "country": "AM",
        "name": "Shaghat",
        "lat": "39.55698",
        "lng": "45.90727"
    },
    {
        "country": "AM",
        "name": "Rrind",
        "lat": "39.76111",
        "lng": "45.17792"
    },
    {
        "country": "AM",
        "name": "Noyakert",
        "lat": "39.83069",
        "lng": "44.66949"
    },
    {
        "country": "AM",
        "name": "Mrgavan",
        "lat": "39.97251",
        "lng": "44.53565"
    },
    {
        "country": "AM",
        "name": "Meghri",
        "lat": "38.90292",
        "lng": "46.24458"
    },
    {
        "country": "AM",
        "name": "Malishka",
        "lat": "39.74731",
        "lng": "45.4057"
    },
    {
        "country": "AM",
        "name": "Khndzoresk",
        "lat": "39.50568",
        "lng": "46.4361"
    },
    {
        "country": "AM",
        "name": "Kapan",
        "lat": "39.20755",
        "lng": "46.40576"
    },
    {
        "country": "AM",
        "name": "Jermuk",
        "lat": "39.84168",
        "lng": "45.66949"
    },
    {
        "country": "AM",
        "name": "Goris",
        "lat": "39.51111",
        "lng": "46.34168"
    },
    {
        "country": "AM",
        "name": "Gladzor",
        "lat": "39.7807",
        "lng": "45.34729"
    },
    {
        "country": "AM",
        "name": "Getap’",
        "lat": "39.76392",
        "lng": "45.30829"
    },
    {
        "country": "AM",
        "name": "Dzorastan",
        "lat": "39.27059",
        "lng": "46.3572"
    },
    {
        "country": "AM",
        "name": "Dalar",
        "lat": "39.97653",
        "lng": "44.52649"
    },
    {
        "country": "AM",
        "name": "Burastan",
        "lat": "39.99157",
        "lng": "44.49681"
    },
    {
        "country": "AM",
        "name": "Akner",
        "lat": "39.53491",
        "lng": "46.30732"
    },
    {
        "country": "AM",
        "name": "Brrnakot’",
        "lat": "39.49742",
        "lng": "45.97241"
    },
    {
        "country": "AM",
        "name": "Berk’anush",
        "lat": "39.9779",
        "lng": "44.51672"
    },
    {
        "country": "AM",
        "name": "Aygezard",
        "lat": "39.95436",
        "lng": "44.60229"
    },
    {
        "country": "AM",
        "name": "Aygepat",
        "lat": "39.95845",
        "lng": "44.59981"
    },
    {
        "country": "AM",
        "name": "Aygavan",
        "lat": "39.87327",
        "lng": "44.66984"
    },
    {
        "country": "AM",
        "name": "Avshar",
        "lat": "39.85553",
        "lng": "44.65832"
    },
    {
        "country": "AM",
        "name": "Hats’avan",
        "lat": "39.46405",
        "lng": "45.97047"
    },
    {
        "country": "AM",
        "name": "Artashat",
        "lat": "39.96144",
        "lng": "44.54447"
    },
    {
        "country": "AM",
        "name": "Yeghegis",
        "lat": "39.87231",
        "lng": "45.3501"
    },
    {
        "country": "AM",
        "name": "Armash",
        "lat": "39.76672",
        "lng": "44.8111"
    },
    {
        "country": "AM",
        "name": "Areni",
        "lat": "39.71668",
        "lng": "45.18329"
    },
    {
        "country": "AM",
        "name": "Ararat",
        "lat": "39.83069",
        "lng": "44.70569"
    },
    {
        "country": "AM",
        "name": "Angeghakot’",
        "lat": "39.56952",
        "lng": "45.94452"
    },
    {
        "country": "AM",
        "name": "Aghavnadzor",
        "lat": "39.78607",
        "lng": "45.2279"
    },
    {
        "country": "AM",
        "name": "Agarakadzor",
        "lat": "39.73608",
        "lng": "45.35553"
    },
    {
        "country": "AM",
        "name": "Agarak",
        "lat": "39.20684",
        "lng": "46.5446"
    },
    {
        "country": "AM",
        "name": "Aralez",
        "lat": "39.90008",
        "lng": "44.6557"
    },
    {
        "country": "AM",
        "name": "Horrom",
        "lat": "40.65973",
        "lng": "43.89032"
    },
    {
        "country": "AM",
        "name": "Margara",
        "lat": "40.03332",
        "lng": "44.18048"
    },
    {
        "country": "AM",
        "name": "Zovuni",
        "lat": "40.51111",
        "lng": "44.4389"
    },
    {
        "country": "AM",
        "name": "Zovaber",
        "lat": "40.56671",
        "lng": "44.79028"
    },
    {
        "country": "AM",
        "name": "Zorak",
        "lat": "40.09168",
        "lng": "44.39447"
    },
    {
        "country": "AM",
        "name": "Zarr",
        "lat": "40.25848",
        "lng": "44.73328"
    },
    {
        "country": "AM",
        "name": "Yerevan",
        "lat": "40.18111",
        "lng": "44.51361"
    },
    {
        "country": "AM",
        "name": "Yerazgavors",
        "lat": "40.69505",
        "lng": "43.74722"
    },
    {
        "country": "AM",
        "name": "Yeraskhahun",
        "lat": "40.07233",
        "lng": "44.21948"
    },
    {
        "country": "AM",
        "name": "Yeranos",
        "lat": "40.20428",
        "lng": "45.19209"
    },
    {
        "country": "AM",
        "name": "Yeghegnut",
        "lat": "40.90302",
        "lng": "44.63155"
    },
    {
        "country": "AM",
        "name": "Yeghegnut",
        "lat": "40.08893",
        "lng": "44.16669"
    },
    {
        "country": "AM",
        "name": "Ejmiatsin",
        "lat": "40.16557",
        "lng": "44.29462"
    },
    {
        "country": "AM",
        "name": "Yeghvard",
        "lat": "40.32507",
        "lng": "44.48608"
    },
    {
        "country": "AM",
        "name": "Voskevaz",
        "lat": "40.27508",
        "lng": "44.30011"
    },
    {
        "country": "AM",
        "name": "Voskevan",
        "lat": "41.12081",
        "lng": "45.06381"
    },
    {
        "country": "AM",
        "name": "Voskehask",
        "lat": "40.76426",
        "lng": "43.77474"
    },
    {
        "country": "AM",
        "name": "Verin Getashen",
        "lat": "40.13068",
        "lng": "45.25293"
    },
    {
        "country": "AM",
        "name": "Verin Dvin",
        "lat": "40.02434",
        "lng": "44.59038"
    },
    {
        "country": "AM",
        "name": "Verin Artashat",
        "lat": "39.99731",
        "lng": "44.58893"
    },
    {
        "country": "AM",
        "name": "Akht’ala",
        "lat": "41.16838",
        "lng": "44.75811"
    },
    {
        "country": "AM",
        "name": "Varser",
        "lat": "40.55548",
        "lng": "44.90832"
    },
    {
        "country": "AM",
        "name": "Vardenis",
        "lat": "40.18329",
        "lng": "45.73053"
    },
    {
        "country": "AM",
        "name": "Vardenik",
        "lat": "40.13348",
        "lng": "45.44311"
    },
    {
        "country": "AM",
        "name": "Vahan",
        "lat": "40.57549",
        "lng": "45.39769"
    },
    {
        "country": "AM",
        "name": "Vaghashen",
        "lat": "40.13611",
        "lng": "45.33069"
    },
    {
        "country": "AM",
        "name": "Vahagni",
        "lat": "40.90698",
        "lng": "44.60873"
    },
    {
        "country": "AM",
        "name": "Ushi",
        "lat": "40.34729",
        "lng": "44.37512"
    },
    {
        "country": "AM",
        "name": "Urrut",
        "lat": "41.06778",
        "lng": "44.39628"
    },
    {
        "country": "AM",
        "name": "Tsovinar",
        "lat": "40.15959",
        "lng": "45.46786"
    },
    {
        "country": "AM",
        "name": "Tsovazard",
        "lat": "40.4751",
        "lng": "45.05011"
    },
    {
        "country": "AM",
        "name": "Tsovak",
        "lat": "40.18254",
        "lng": "45.63286"
    },
    {
        "country": "AM",
        "name": "Tsovagyugh",
        "lat": "40.63348",
        "lng": "44.96112"
    },
    {
        "country": "AM",
        "name": "Tsaghkunk’",
        "lat": "40.18048",
        "lng": "44.27228"
    },
    {
        "country": "AM",
        "name": "Tsaghkahovit",
        "lat": "40.63428",
        "lng": "44.22241"
    },
    {
        "country": "AM",
        "name": "Tsaghkaber",
        "lat": "40.79849",
        "lng": "44.10144"
    },